Timestamp,accelX(g),accelY(g),accelZ(g),accelUserX(g),accelUserY(g),accelUserZ(g),gyroX(rad/s),gyroY(rad/s),gyroZ(rad/s),Roll(rads),Pitch(rads),Yaw(rads),m11,m12,m13,m21,m22,m23,m31,m32,m33,qX,qY,qZ,qW,Lat,Long,Speed(m/s),TrueHeading,Alt(m),HorizontalAccuracy(m),VerticalAccuracy(m),Course,ActivityType,ActivityConfidence,Pressure(kilopascals),RelativeAltitude(meters),magX(µT),magY(µT),magZ(µT),calMagX(µT),calMagY(µT),calMagZ(µT)
04-Feb-2024 11:07:47.524,-0.0263, 0.1457,-0.9798,-0.0097,-0.0145, 0.0071,-0.0407, 0.0103,-0.0095,-0.0168,-0.1609,-2.0053,-0.4185,-0.9081, 0.0166, 0.8953,-0.4156,-0.1602, 0.1524,-0.0522, 0.9869,-0.0503, 0.0632,-0.8398, 0.5369,41.388830,2.158182, 2.5935, 356.6, 32.215282, 8.0, 3.0, 45.4,Automotive,High, 102.5717, 7.6469, 165.3473, 81.2405,-615.9490,-22.8916, 12.5283,-0.0397
04-Feb-2024 11:07:47.530,-0.0159, 0.1499,-0.9806, 0.0007,-0.0102, 0.0063,-0.0334, 0.0093,-0.0089,-0.0168,-0.1609,-2.0054,-0.4185,-0.9081, 0.0166, 0.8953,-0.4156,-0.1602, 0.1523,-0.0522, 0.9869,-0.0503, 0.0632,-0.8398, 0.5369,41.388830,2.158182, 2.5935, 356.6, 32.215282, 8.0, 3.0, 45.4,Automotive,High, 102.5717, 7.6469, 166.6819, 81.2137,-613.7859,-22.8916, 12.5283,-0.0397
04-Feb-2024 11:07:47.534,-0.0159, 0.1499,-0.9806, 0.0007,-0.0102, 0.0063,-0.0343, 0.0037,-0.0084,-0.0168,-0.1609,-2.0053,-0.4185,-0.9081, 0.0166, 0.8953,-0.4156,-0.1602, 0.1524,-0.0522, 0.9869,-0.0503, 0.0632,-0.8398, 0.5369,41.388830,2.158182, 2.5935, 356.6, 32.215282, 8.0, 3.0, 45.4,Automotive,High, 102.5717, 7.6469, 166.6819, 81.2137,-613.7859,-22.8118, 12.3820,-0.2630
04-Feb-2024 11:07:47.538,-0.0159, 0.1499,-0.9806, 0.0007,-0.0102, 0.0063,-0.0343, 0.0037,-0.0084,-0.0168,-0.1609,-2.0053,-0.4185,-0.9081, 0.0166, 0.8953,-0.4156,-0.1602, 0.1524,-0.0522, 0.9869,-0.0503, 0.0632,-0.8398, 0.5369,41.388830,2.158182, 2.5935, 356.6, 32.215282, 8.0, 3.0, 45.4,Automotive,High, 102.5717, 7.6469, 166.6819, 81.2137,-613.7859,-22.8118, 12.3820,-0.2630
04-Feb-2024 11:07:47.542,-0.0233, 0.1455,-0.9814,-0.0067,-0.0147, 0.0056,-0.0343, 0.0037,-0.0084,-0.0168,-0.1608,-2.0053,-0.4185,-0.9081, 0.0166, 0.8954,-0.4156,-0.1601, 0.1523,-0.0521, 0.9870,-0.0503, 0.0632,-0.8398, 0.5369,41.388830,2.158182, 2.5935, 356.6, 32.215282, 8.0, 3.0, 45.4,Automotive,High, 102.5717, 7.6469, 166.6819, 81.2137,-613.7859,-22.8118, 12.3820,-0.2630
04-Feb-2024 11:07:47.547,-0.0233, 0.1455,-0.9814,-0.0067,-0.0147, 0.0056,-0.0347, 0.0091,-0.0064,-0.0168,-0.1609,-2.0053,-0.4185,-0.9081, 0.0166, 0.8954,-0.4156,-0.1602, 0.1523,-0.0522, 0.9870,-0.0503, 0.0632,-0.8398, 0.5369,41.388830,2.158182, 2.5935, 356.6, 32.215282, 8.0, 3.0, 45.4,Automotive,High, 102.5717, 7.6469, 166.6819, 81.2137,-613.7859,-22.8118, 12.3820,-0.2630
04-Feb-2024 11:07:47.551,-0.0312, 0.1397,-0.9812,-0.0146,-0.0204, 0.0057,-0.0347, 0.0091,-0.0064,-0.0168,-0.1608,-2.0053,-0.4185,-0.9081, 0.0166, 0.8954,-0.4156,-0.1601, 0.1523,-0.0521, 0.9870,-0.0503, 0.0632,-0.8398, 0.5369,41.388830,2.158182, 2.5935, 356.6, 32.215282, 8.0, 3.0, 45.4,Automotive,High, 102.5717, 7.6469, 166.6819, 81.2137,-613.7859,-22.5800, 12.6924,-0.2452
04-Feb-2024 11:07:47.555,-0.0312, 0.1397,-0.9812,-0.0146,-0.0204, 0.0057,-0.0399, 0.0125,-0.0062,-0.0168,-0.1608,-2.0053,-0.4185,-0.9081, 0.0165, 0.8954,-0.4155,-0.1601, 0.1523,-0.0522, 0.9870,-0.0503, 0.0632,-0.8398, 0.5369,41.388830,2.158182, 2.5935, 356.6, 32.215282, 8.0, 3.0, 45.4,Automotive,High, 102.5717, 7.6469, 166.6819, 81.2137,-613.7859,-22.5800, 12.6924,-0.2452
04-Feb-2024 11:07:47.561,-0.0231, 0.1415,-0.9819,-0.0065,-0.0186, 0.0051,-0.0399, 0.0125,-0.0062,-0.0168,-0.1608,-2.0053,-0.4185,-0.9081, 0.0166, 0.8954,-0.4155,-0.1601, 0.1523,-0.0522, 0.9870,-0.0503, 0.0632,-0.8398, 0.5369,41.388830,2.158182, 2.5935, 356.6, 32.215282, 8.0, 3.0, 45.4,Automotive,High, 102.5717, 7.6469, 166.6160, 81.0655,-614.0704,-22.5800, 12.6924,-0.2452
04-Feb-2024 11:07:47.565,-0.0231, 0.1415,-0.9819,-0.0066,-0.0186, 0.0051,-0.0358, 0.0098,-0.0057,-0.0167,-0.1608,-2.0053,-0.4185,-0.9081, 0.0165, 0.8954,-0.4155,-0.1602, 0.1523,-0.0522, 0.9870,-0.0503, 0.0632,-0.8398, 0.5369,41.388830,2.158182, 2.5935, 356.6, 32.215282, 8.0, 3.0, 45.4,Automotive,High, 102.5717, 7.6469, 166.6160, 81.0655,-614.0704,-22.5800, 12.6924,-0.2452
04-Feb-2024 11:07:47.570,-0.0126, 0.1506,-0.9805, 0.0039,-0.0095, 0.0065,-0.0358, 0.0098,-0.0057,-0.0167,-0.1608,-2.0053,-0.4184,-0.9081, 0.0165, 0.8954,-0.4155,-0.1601, 0.1523,-0.0522, 0.9870,-0.0502, 0.0632,-0.8398, 0.5369,41.388830,2.158182, 2.5935, 356.6, 32.215282, 8.0, 3.0, 45.4,Automotive,High, 102.5717, 7.6469, 166.6160, 81.0655,-614.0704,-22.6958, 12.7005,-0.5106
04-Feb-2024 11:07:47.573,-0.0126, 0.1506,-0.9805, 0.0039,-0.0095, 0.0065,-0.0358, 0.0098,-0.0057,-0.0167,-0.1608,-2.0053,-0.4184,-0.9081, 0.0165, 0.8954,-0.4155,-0.1601, 0.1523,-0.0522, 0.9870,-0.0502, 0.0632,-0.8398, 0.5369,41.388830,2.158182, 2.5935, 356.6, 32.215282, 8.0, 3.0, 45.4,Automotive,High, 102.5717, 7.6469, 166.6160, 81.0655,-614.0704,-22.6958, 12.7005,-0.5106
04-Feb-2024 11:07:47.577,-0.0126, 0.1506,-0.9805, 0.0039,-0.0094, 0.0065,-0.0252, 0.0161,-0.0055,-0.0167,-0.1608,-2.0053,-0.4184,-0.9081, 0.0165, 0.8954,-0.4155,-0.1601, 0.1522,-0.0522, 0.9870,-0.0502, 0.0632,-0.8398, 0.5369,41.388830,2.158182, 2.5935, 356.6, 32.215282, 8.0, 3.0, 45.4,Automotive,High, 102.5717, 7.6469, 166.6160, 81.0655,-614.0704,-22.6958, 12.7005,-0.5106
04-Feb-2024 11:07:47.582,-0.0192, 0.1471,-0.9814,-0.0027,-0.0129, 0.0055,-0.0252, 0.0161,-0.0055,-0.0167,-0.1607,-2.0052,-0.4184,-0.9081, 0.0165, 0.8954,-0.4155,-0.1600, 0.1522,-0.0522, 0.9870,-0.0502, 0.0632,-0.8398, 0.5369,41.388830,2.158182, 2.5935, 356.6, 32.215282, 8.0, 3.0, 45.4,Automotive,High, 102.5717, 7.6469, 166.6160, 81.0655,-614.0704,-22.6958, 12.7005,-0.5106
04-Feb-2024 11:07:47.587,-0.0192, 0.1471,-0.9814,-0.0027,-0.0130, 0.0055,-0.0500, 0.0031,-0.0070,-0.0167,-0.1608,-2.0052,-0.4184,-0.9081, 0.0165, 0.8954,-0.4155,-0.1601, 0.1523,-0.0523, 0.9870,-0.0502, 0.0632,-0.8398, 0.5369,41.388830,2.158182, 2.5935, 356.6, 32.215282, 8.0, 3.0, 45.4,Automotive,High, 102.5717, 7.6469, 166.6160, 81.0655,-614.0704,-22.6958, 12.7005,-0.5106
04-Feb-2024 11:07:47.591,-0.0187, 0.1451,-0.9744,-0.0022,-0.0150, 0.0126,-0.0500, 0.0031,-0.0070,-0.0167,-0.1608,-2.0052,-0.4184,-0.9081, 0.0165, 0.8954,-0.4155,-0.1601, 0.1522,-0.0522, 0.9870,-0.0502, 0.0632,-0.8398, 0.5369,41.388830,2.158182, 2.5935, 356.6, 32.215282, 8.0, 3.0, 45.4,Automotive,High, 102.5717, 7.6469, 166.6160, 81.0655,-614.0704,-22.7972, 12.5781,-0.4133
04-Feb-2024 11:07:47.596,-0.0187, 0.1451,-0.9744,-0.0023,-0.0150, 0.0126,-0.0230, 0.0263,-0.0045,-0.0166,-0.1608,-2.0052,-0.4184,-0.9081, 0.0164, 0.8954,-0.4154,-0.1601, 0.1522,-0.0523, 0.9870,-0.0502, 0.0632,-0.8398, 0.5369,41.388830,2.158182, 2.5935, 356.6, 32.215282, 8.0, 3.0, 45.4,Automotive,High, 102.5717, 7.6469, 166.3407, 81.1618,-614.3701,-22.7972, 12.5781,-0.4133
04-Feb-2024 11:07:47.601,-0.0196, 0.1537,-0.9790,-0.0032,-0.0063, 0.0080,-0.0230, 0.0263,-0.0045,-0.0165,-0.1607,-2.0052,-0.4184,-0.9081, 0.0163, 0.8954,-0.4154,-0.1600, 0.1521,-0.0523, 0.9870,-0.0501, 0.0632,-0.8398, 0.5369,41.388830,2.158182, 2.5935, 356.6, 32.215282, 8.0, 3.0, 45.4,Automotive,High, 102.5698, 7.8001, 166.3407, 81.1618,-614.3701,-22.7972, 12.5781,-0.4133
04-Feb-2024 11:07:47.605,-0.0196, 0.1537,-0.9790,-0.0033,-0.0064, 0.0080,-0.0430, 0.0053,-0.0040,-0.0165,-0.1608,-2.0051,-0.4184,-0.9081, 0.0163, 0.8954,-0.4154,-0.1601, 0.1521,-0.0524, 0.9870,-0.0501, 0.0633,-0.8398, 0.5369,41.388830,2.158182, 2.5935, 356.6, 32.215282, 8.0, 3.0, 45.4,Automotive,High, 102.5698, 7.8001, 166.3407, 81.1618,-614.3701,-22.7972, 12.5781,-0.4133
04-Feb-2024 11:07:47.610,-0.0028, 0.1448,-0.9756, 0.0135,-0.0153, 0.0114,-0.0430, 0.0053,-0.0040,-0.0165,-0.1608,-2.0051,-0.4183,-0.9081, 0.0163, 0.8955,-0.4154,-0.1601, 0.1521,-0.0524, 0.9870,-0.0501, 0.0633,-0.8397, 0.5369,41.388830,2.158182, 2.5935, 356.6, 32.215282, 8.0, 3.0, 45.4,Automotive,High, 102.5698, 7.8001, 166.3407, 81.1618,-614.3701,-22.8054, 12.4646,-0.4988
04-Feb-2024 11:07:47.615,-0.0028, 0.1448,-0.9756, 0.0135,-0.0153, 0.0114,-0.0346, 0.0212,-0.0037,-0.0164,-0.1608,-2.0051,-0.4183,-0.9082, 0.0162, 0.8955,-0.4153,-0.1601, 0.1521,-0.0524, 0.9870,-0.0501, 0.0633,-0.8397, 0.5370,41.388830,2.158182, 2.5935, 356.6, 32.215282, 8.0, 3.0, 45.4,Automotive,High, 102.5698, 7.8001, 166.3407, 81.1618,-614.3701,-22.8054, 12.4646,-0.4988
04-Feb-2024 11:07:47.620,-0.0207, 0.1471,-0.9758,-0.0045,-0.0130, 0.0112,-0.0346, 0.0212,-0.0037,-0.0164,-0.1608,-2.0051,-0.4183,-0.9082, 0.0162, 0.8955,-0.4153,-0.1601, 0.1521,-0.0525, 0.9870,-0.0501, 0.0633,-0.8397, 0.5370,41.388830,2.158182, 2.5935, 356.6, 32.215282, 8.0, 3.0, 45.4,Automotive,High, 102.5698, 7.8001, 166.3407, 81.1618,-614.3701,-22.8054, 12.4646,-0.4988
04-Feb-2024 11:07:47.624,-0.0207, 0.1471,-0.9758,-0.0046,-0.0130, 0.0112,-0.0346, 0.0212,-0.0037,-0.0163,-0.1608,-2.0050,-0.4183,-0.9082, 0.0161, 0.8955,-0.4153,-0.1601, 0.1520,-0.0526, 0.9870,-0.0501, 0.0633,-0.8397, 0.5370,41.388830,2.158182, 2.5935, 356.6, 32.215282, 8.0, 3.0, 45.4,Automotive,High, 102.5698, 7.8001, 166.3407, 81.1618,-614.3701,-22.8054, 12.4646,-0.4988
04-Feb-2024 11:07:47.628,-0.0207, 0.1471,-0.9758,-0.0046,-0.0130, 0.0112,-0.0176, 0.0234, 0.0003,-0.0163,-0.1608,-2.0050,-0.4183,-0.9082, 0.0161, 0.8955,-0.4153,-0.1601, 0.1520,-0.0526, 0.9870,-0.0501, 0.0633,-0.8397, 0.5370,41.388830,2.158182, 2.5935, 356.6, 32.215282, 8.0, 3.0, 45.4,Automotive,High, 102.5698, 7.8001, 166.3407, 81.1618,-614.3701,-22.8054, 12.4646,-0.4988
04-Feb-2024 11:07:47.633,-0.0150, 0.1453,-0.9762, 0.0010,-0.0146, 0.0108,-0.0176, 0.0234, 0.0003,-0.0162,-0.1606,-2.0050,-0.4183,-0.9082, 0.0160, 0.8955,-0.4153,-0.1599, 0.1519,-0.0525, 0.9870,-0.0500, 0.0632,-0.8397, 0.5370,41.388830,2.158182, 2.5935, 356.6, 32.215282, 8.0, 3.0, 45.4,Automotive,High, 102.5698, 7.8001, 166.5913, 81.1137,-614.0895,-22.6709, 12.4609,-0.3138
04-Feb-2024 11:07:47.638,-0.0150, 0.1453,-0.9762, 0.0009,-0.0146, 0.0108,-0.0475, 0.0027,-0.0035,-0.0162,-0.1605,-2.0050,-0.4183,-0.9082, 0.0159, 0.8955,-0.4153,-0.1598, 0.1518,-0.0526, 0.9870,-0.0499, 0.0632,-0.8397, 0.5370,41.388830,2.158182, 2.5935, 356.6, 32.215282, 8.0, 3.0, 45.4,Automotive,High, 102.5698, 7.8001, 166.5913, 81.1137,-614.0895,-22.6709, 12.4609,-0.3138
04-Feb-2024 11:07:47.642,-0.0085, 0.1342,-0.9874, 0.0075,-0.0257,-0.0004,-0.0475, 0.0027,-0.0035,-0.0161,-0.1606,-2.0050,-0.4183,-0.9082, 0.0159, 0.8955,-0.4152,-0.1599, 0.1518,-0.0526, 0.9870,-0.0499, 0.0633,-0.8397, 0.5370,41.388830,2.158182, 2.5935, 356.6, 32.215282, 8.0, 3.0, 45.4,Automotive,High, 102.5698, 7.8001, 166.5913, 81.1137,-614.0895,-22.6709, 12.4609,-0.3138
04-Feb-2024 11:07:47.647,-0.0085, 0.1342,-0.9874, 0.0074,-0.0258,-0.0004,-0.0464, 0.0103,-0.0124,-0.0160,-0.1607,-2.0049,-0.4182,-0.9082, 0.0158, 0.8955,-0.4152,-0.1600, 0.1519,-0.0527, 0.9870,-0.0499, 0.0633,-0.8397, 0.5370,41.388830,2.158182, 2.5935, 356.6, 32.215282, 8.0, 3.0, 45.4,Automotive,High, 102.5698, 7.8001, 166.5913, 81.1137,-614.0895,-22.6709, 12.4609,-0.3138
04-Feb-2024 11:07:47.651,-0.0076, 0.1375,-0.9801, 0.0083,-0.0225, 0.0068,-0.0464, 0.0103,-0.0124,-0.0161,-0.1607,-2.0049,-0.4182,-0.9082, 0.0159, 0.8955,-0.4152,-0.1600, 0.1519,-0.0527, 0.9870,-0.0500, 0.0633,-0.8397, 0.5370,41.388830,2.158182, 2.5935, 356.6, 32.215282, 8.0, 3.0, 45.4,Automotive,High, 102.5698, 7.8001, 166.5913, 81.1137,-614.0895,-22.4990, 12.6821,-0.4335
04-Feb-2024 11:07:47.655,-0.0076, 0.1375,-0.9801, 0.0083,-0.0225, 0.0068,-0.0317, 0.0385,-0.0119,-0.0160,-0.1607,-2.0049,-0.4182,-0.9082, 0.0158, 0.8956,-0.4152,-0.1600, 0.1519,-0.0527, 0.9870,-0.0499, 0.0633,-0.8397, 0.5370,41.388830,2.158182, 2.5935, 356.6, 32.215282, 8.0, 3.0, 45.4,Automotive,High, 102.5698, 7.8001, 166.5913, 81.1137,-614.0895,-22.4990, 12.6821,-0.4335
04-Feb-2024 11:07:47.660,-0.0295, 0.1426,-0.9657,-0.0137,-0.0173, 0.0213,-0.0317, 0.0385,-0.0119,-0.0159,-0.1606,-2.0049,-0.4182,-0.9082, 0.0157, 0.8956,-0.4152,-0.1600, 0.1518,-0.0528, 0.9870,-0.0499, 0.0633,-0.8397, 0.5370,41.388830,2.158182, 2.5935, 356.6, 32.215282, 8.0, 3.0, 45.4,Automotive,High, 102.5698, 7.8001, 166.5913, 81.1137,-614.0895,-22.4990, 12.6821,-0.4335
04-Feb-2024 11:07:47.665,-0.0295, 0.1426,-0.9657,-0.0138,-0.0173, 0.0213,-0.0137, 0.0285,-0.0044,-0.0158,-0.1606,-2.0049,-0.4182,-0.9082, 0.0156, 0.8956,-0.4152,-0.1599, 0.1517,-0.0529, 0.9870,-0.0498, 0.0633,-0.8397, 0.5370,41.388830,2.158182, 2.5935, 356.6, 32.215282, 8.0, 3.0, 45.4,Automotive,High, 102.5698, 7.8001, 166.8488, 81.1300,-614.2568,-22.6492, 12.3974,-0.5330
04-Feb-2024 11:07:47.668,-0.0295, 0.1426,-0.9657,-0.0138,-0.0173, 0.0213,-0.0137, 0.0285,-0.0044,-0.0158,-0.1606,-2.0049,-0.4182,-0.9082, 0.0156, 0.8956,-0.4152,-0.1599, 0.1517,-0.0529, 0.9870,-0.0498, 0.0633,-0.8397, 0.5370,41.388830,2.158182, 2.5935, 356.6, 32.215282, 8.0, 3.0, 45.4,Automotive,High, 102.5698, 7.8001, 166.8488, 81.1300,-614.2568,-22.6492, 12.3974,-0.5330
04-Feb-2024 11:07:47.673,-0.0205, 0.1329,-0.9731,-0.0049,-0.0269, 0.0139,-0.0137, 0.0285,-0.0044,-0.0158,-0.1605,-2.0049,-0.4182,-0.9082, 0.0156, 0.8956,-0.4152,-0.1598, 0.1516,-0.0529, 0.9870,-0.0498, 0.0633,-0.8397, 0.5370,41.388830,2.158182, 2.5935, 356.6, 32.215282, 8.0, 3.0, 45.4,Automotive,High, 102.5698, 7.8001, 166.8488, 81.1300,-614.2568,-22.6492, 12.3974,-0.5330
04-Feb-2024 11:07:47.677,-0.0205, 0.1329,-0.9731,-0.0050,-0.0270, 0.0139,-0.0484, 0.0269,-0.0010,-0.0157,-0.1606,-2.0049,-0.4182,-0.9082, 0.0155, 0.8956,-0.4151,-0.1599, 0.1517,-0.0530, 0.9870,-0.0498, 0.0634,-0.8397, 0.5370,41.388830,2.158182, 2.5935, 356.6, 32.215282, 8.0, 3.0, 45.4,Automotive,High, 102.5698, 7.8001, 166.8488, 81.1300,-614.2568,-22.6492, 12.3974,-0.5330
04-Feb-2024 11:07:47.682,-0.0093, 0.1375,-0.9765, 0.0061,-0.0225, 0.0105,-0.0484, 0.0269,-0.0010,-0.0156,-0.1606,-2.0048,-0.4182,-0.9082, 0.0154, 0.8956,-0.4151,-0.1599, 0.1517,-0.0531, 0.9870,-0.0497, 0.0634,-0.8397, 0.5370,41.388830,2.158182, 2.5935, 356.6, 32.215282, 8.0, 3.0, 45.4,Automotive,High, 102.5698, 7.8001, 166.8488, 81.1300,-614.2568,-22.6492, 12.3974,-0.5330
04-Feb-2024 11:07:47.686,-0.0093, 0.1375,-0.9765, 0.0061,-0.0225, 0.0105,-0.0389,-0.0187,-0.0055,-0.0156,-0.1606,-2.0048,-0.4182,-0.9082, 0.0154, 0.8956,-0.4151,-0.1600, 0.1517,-0.0531, 0.9870,-0.0497, 0.0634,-0.8397, 0.5370,41.388830,2.158182, 2.5935, 356.6, 32.215282, 8.0, 3.0, 45.4,Automotive,High, 102.5698, 7.8001, 166.8488, 81.1300,-614.2568,-22.6657, 12.2186,-0.5156
04-Feb-2024 11:07:47.691,-0.0000, 0.1501,-0.9771, 0.0154,-0.0099, 0.0099,-0.0389,-0.0187,-0.0055,-0.0156,-0.1606,-2.0048,-0.4182,-0.9082, 0.0154, 0.8956,-0.4151,-0.1600, 0.1517,-0.0531, 0.9870,-0.0497, 0.0634,-0.8397, 0.5371,41.388830,2.158182, 2.5935, 356.6, 32.215282, 8.0, 3.0, 45.4,Automotive,High, 102.5698, 7.8001, 166.8488, 81.1300,-614.2568,-22.6657, 12.2186,-0.5156
04-Feb-2024 11:07:47.695,-0.0000, 0.1501,-0.9771, 0.0153,-0.0099, 0.0099,-0.0217, 0.0205,-0.0047,-0.0155,-0.1606,-2.0048,-0.4182,-0.9082, 0.0153, 0.8956,-0.4151,-0.1599, 0.1516,-0.0532, 0.9870,-0.0497, 0.0634,-0.8397, 0.5371,41.388830,2.158182, 2.5935, 356.6, 32.215282, 8.0, 3.0, 45.4,Automotive,High, 102.5698, 7.8001, 166.8488, 81.1300,-614.2568,-22.6657, 12.2186,-0.5156
04-Feb-2024 11:07:47.698,-0.0000, 0.1501,-0.9771, 0.0153,-0.0099, 0.0099,-0.0217, 0.0205,-0.0047,-0.0155,-0.1606,-2.0048,-0.4182,-0.9082, 0.0153, 0.8956,-0.4151,-0.1599, 0.1516,-0.0532, 0.9870,-0.0497, 0.0634,-0.8397, 0.5371,41.388830,2.158182, 2.5935, 356.6, 32.215282, 8.0, 3.0, 45.4,Automotive,High, 102.5698, 7.8001, 166.8488, 81.1300,-614.2568,-22.6657, 12.2186,-0.5156
04-Feb-2024 11:07:47.703,-0.0173, 0.1454,-0.9677,-0.0020,-0.0145, 0.0193,-0.0217, 0.0205,-0.0047,-0.0155,-0.1606,-2.0048,-0.4182,-0.9082, 0.0153, 0.8956,-0.4151,-0.1599, 0.1515,-0.0532, 0.9870,-0.0497, 0.0634,-0.8397, 0.5371,41.388830,2.158182, 2.5935, 356.6, 32.215282, 8.0, 3.0, 45.4,Automotive,High, 102.5698, 7.8001, 166.8488, 81.1300,-614.2568,-22.6657, 12.2186,-0.5156
04-Feb-2024 11:07:47.707,-0.0173, 0.1454,-0.9677,-0.0021,-0.0145, 0.0193,-0.0326, 0.0172,-0.0085,-0.0154,-0.1605,-2.0048,-0.4182,-0.9082, 0.0152, 0.8956,-0.4151,-0.1598, 0.1515,-0.0532, 0.9870,-0.0496, 0.0634,-0.8397, 0.5371,41.388830,2.158182, 2.5935, 356.6, 32.215282, 8.0, 3.0, 45.4,Automotive,High, 102.5698, 7.8001, 166.8488, 81.1300,-614.2568,-22.6419, 12.4768,-0.6893
04-Feb-2024 11:07:47.713,-0.0170, 0.1374,-0.9739,-0.0019,-0.0224, 0.0131,-0.0326, 0.0172,-0.0085,-0.0154,-0.1605,-2.0048,-0.4182,-0.9082, 0.0152, 0.8956,-0.4151,-0.1598, 0.1514,-0.0532, 0.9870,-0.0496, 0.0634,-0.8397, 0.5371,41.388830,2.158182, 2.5935, 356.6, 32.215282, 8.0, 3.0, 45.4,Automotive,High, 102.5698, 7.8001, 166.8488, 81.1300,-614.2568,-22.6419, 12.4768,-0.6893
04-Feb-2024 11:07:47.718,-0.0170, 0.1374,-0.9739,-0.0019,-0.0224, 0.0131,-0.0335, 0.0136,-0.0115,-0.0153,-0.1605,-2.0048,-0.4182,-0.9082, 0.0151, 0.8956,-0.4151,-0.1598, 0.1514,-0.0533, 0.9870,-0.0496, 0.0635,-0.8397, 0.5371,41.388830,2.158182, 2.5935, 356.6, 32.215282, 8.0, 3.0, 45.4,Automotive,High, 102.5698, 7.8001, 166.8730, 81.1171,-614.5318,-22.6419, 12.4768,-0.6893
04-Feb-2024 11:07:47.722,-0.0053, 0.1382,-0.9837, 0.0098,-0.0216, 0.0033,-0.0335, 0.0136,-0.0115,-0.0153,-0.1605,-2.0048,-0.4182,-0.9082, 0.0151, 0.8956,-0.4151,-0.1598, 0.1514,-0.0533, 0.9870,-0.0496, 0.0634,-0.8397, 0.5371,41.388830,2.158182, 2.5935, 356.6, 32.215282, 8.0, 3.0, 45.4,Automotive,High, 102.5698, 7.8001, 166.8730, 81.1171,-614.5318,-22.6419, 12.4768,-0.6893
04-Feb-2024 11:07:47.727,-0.0053, 0.1382,-0.9837, 0.0098,-0.0216, 0.0033,-0.0383, 0.0063,-0.0085,-0.0153,-0.1605,-2.0048,-0.4182,-0.9082, 0.0151, 0.8956,-0.4151,-0.1598, 0.1514,-0.0533, 0.9870,-0.0496, 0.0635,-0.8397, 0.5371,41.388830,2.158182, 2.5935, 356.6, 32.215282, 8.0, 3.0, 45.4,Automotive,High, 102.5698, 7.8001, 166.8730, 81.1171,-614.5318,-22.7836, 12.5790,-0.5974
04-Feb-2024 11:07:47.731,-0.0094, 0.1357,-0.9748, 0.0057,-0.0241, 0.0122,-0.0383, 0.0063,-0.0085,-0.0153,-0.1605,-2.0048,-0.4182,-0.9082, 0.0151, 0.8956,-0.4151,-0.1598, 0.1514,-0.0533, 0.9870,-0.0496, 0.0635,-0.8397, 0.5371,41.388830,2.158182, 2.5935, 356.6, 32.215282, 8.0, 3.0, 45.4,Automotive,High, 102.5698, 7.8001, 166.8730, 81.1171,-614.5318,-22.7836, 12.5790,-0.5974
04-Feb-2024 11:07:47.735,-0.0094, 0.1357,-0.9748, 0.0057,-0.0241, 0.0122,-0.0286, 0.0071,-0.0083,-0.0152,-0.1605,-2.0048,-0.4182,-0.9082, 0.0150, 0.8956,-0.4151,-0.1598, 0.1514,-0.0534, 0.9870,-0.0495, 0.0635,-0.8397, 0.5371,41.388830,2.158182, 2.5935, 356.6, 32.215282, 8.0, 3.0, 45.4,Automotive,High, 102.5698, 7.8001, 166.8730, 81.1171,-614.5318,-22.7836, 12.5790,-0.5974
04-Feb-2024 11:07:47.740,-0.0200, 0.1301,-0.9653,-0.0049,-0.0296, 0.0218,-0.0286, 0.0071,-0.0083,-0.0152,-0.1604,-2.0048,-0.4182,-0.9082, 0.0150, 0.8957,-0.4151,-0.1597, 0.1513,-0.0533, 0.9870,-0.0495, 0.0634,-0.8397, 0.5371,41.388830,2.158182, 2.5935, 356.6, 32.215282, 8.0, 3.0, 45.4,Automotive,High, 102.5698, 7.8001, 166.8730, 81.1171,-614.5318,-22.7836, 12.5790,-0.5974
04-Feb-2024 11:07:47.744,-0.0200, 0.1301,-0.9653,-0.0050,-0.0296, 0.0218,-0.0286, 0.0071,-0.0083,-0.0152,-0.1604,-2.0048,-0.4182,-0.9082, 0.0150, 0.8957,-0.4151,-0.1597, 0.1513,-0.0534, 0.9870,-0.0495, 0.0635,-0.8397, 0.5371,41.388830,2.158182, 2.5935, 356.6, 32.215282, 8.0, 3.0, 45.4,Automotive,High, 102.5698, 7.8001, 166.8730, 81.1171,-614.5318,-22.7186, 12.8834,-0.4623
04-Feb-2024 11:07:47.749,-0.0200, 0.1301,-0.9653,-0.0050,-0.0296, 0.0218,-0.0305, 0.0179,-0.0087,-0.0152,-0.1604,-2.0048,-0.4182,-0.9082, 0.0150, 0.8957,-0.4151,-0.1597, 0.1513,-0.0534, 0.9870,-0.0495, 0.0635,-0.8397, 0.5371,41.388830,2.158182, 2.5935, 356.6, 32.215282, 8.0, 3.0, 45.4,Automotive,High, 102.5698, 7.8001, 166.8260, 81.1754,-614.5478,-22.7186, 12.8834,-0.4623
04-Feb-2024 11:07:47.753,-0.0175, 0.1342,-0.9717,-0.0025,-0.0255, 0.0154,-0.0305, 0.0179,-0.0087,-0.0151,-0.1604,-2.0048,-0.4182,-0.9082, 0.0149, 0.8957,-0.4151,-0.1597, 0.1512,-0.0534, 0.9871,-0.0495, 0.0634,-0.8397, 0.5371,41.388830,2.158182, 2.5935, 356.6, 32.215282, 8.0, 3.0, 45.4,Automotive,High, 102.5698, 7.8001, 166.8260, 81.1754,-614.5478,-22.7186, 12.8834,-0.4623
04-Feb-2024 11:07:47.757,-0.0175, 0.1342,-0.9717,-0.0025,-0.0255, 0.0154,-0.0376, 0.0032,-0.0107,-0.0151,-0.1604,-2.0048,-0.4182,-0.9082, 0.0149, 0.8957,-0.4151,-0.1597, 0.1512,-0.0534, 0.9871,-0.0495, 0.0634,-0.8397, 0.5371,41.388830,2.158182, 2.5935, 356.6, 32.215282, 8.0, 3.0, 45.4,Automotive,High, 102.5698, 7.8001, 166.8260, 81.1754,-614.5478,-22.7186, 12.8834,-0.4623
04-Feb-2024 11:07:47.762,-0.0023, 0.1454,-0.9821, 0.0126,-0.0143, 0.0049,-0.0376, 0.0032,-0.0107,-0.0151,-0.1604,-2.0048,-0.4182,-0.9082, 0.0149, 0.8957,-0.4151,-0.1597, 0.1512,-0.0534, 0.9871,-0.0495, 0.0634,-0.8397, 0.5371,41.388830,2.158182, 2.5935, 356.6, 32.215282, 8.0, 3.0, 45.4,Automotive,High, 102.5698, 7.8001, 166.8260, 81.1754,-614.5478,-22.7186, 12.8834,-0.4623
04-Feb-2024 11:07:47.766,-0.0023, 0.1454,-0.9821, 0.0126,-0.0144, 0.0049,-0.0351, 0.0051,-0.0095,-0.0151,-0.1604,-2.0048,-0.4182,-0.9082, 0.0149, 0.8957,-0.4151,-0.1597, 0.1512,-0.0534, 0.9871,-0.0495, 0.0635,-0.8397, 0.5371,41.388830,2.158182, 2.5935, 356.6, 32.215282, 8.0, 3.0, 45.4,Automotive,High, 102.5698, 7.8001, 166.8260, 81.1754,-614.5478,-22.6800, 12.6822,-0.3440
04-Feb-2024 11:07:47.770,-0.0023, 0.1454,-0.9821, 0.0126,-0.0144, 0.0049,-0.0351, 0.0051,-0.0095,-0.0151,-0.1604,-2.0048,-0.4182,-0.9082, 0.0149, 0.8957,-0.4151,-0.1597, 0.1512,-0.0534, 0.9871,-0.0495, 0.0635,-0.8397, 0.5371,41.388830,2.158182, 2.5935, 356.6, 32.215282, 8.0, 3.0, 45.4,Automotive,High, 102.5698, 7.8001, 166.8260, 81.1754,-614.5478,-22.6800, 12.6822,-0.3440
04-Feb-2024 11:07:47.774,-0.0034, 0.1431,-0.9749, 0.0115,-0.0166, 0.0121,-0.0351, 0.0051,-0.0095,-0.0151,-0.1604,-2.0048,-0.4183,-0.9082, 0.0149, 0.8957,-0.4151,-0.1597, 0.1512,-0.0535, 0.9871,-0.0495, 0.0635,-0.8397, 0.5371,41.388830,2.158182, 2.5935, 356.6, 32.215282, 8.0, 3.0, 45.4,Automotive,High, 102.5698, 7.8001, 166.8260, 81.1754,-614.5478,-22.6800, 12.6822,-0.3440
04-Feb-2024 11:07:47.778,-0.0034, 0.1431,-0.9749, 0.0115,-0.0166, 0.0121,-0.0330, 0.0067,-0.0112,-0.0151,-0.1604,-2.0048,-0.4183,-0.9082, 0.0149, 0.8957,-0.4151,-0.1597, 0.1512,-0.0535, 0.9871,-0.0495, 0.0635,-0.8397, 0.5371,41.388830,2.158182, 2.5935, 356.6, 32.215282, 8.0, 3.0, 45.4,Automotive,High, 102.5698, 7.8001, 166.8260, 81.1754,-614.5478,-22.6800, 12.6822,-0.3440
04-Feb-2024 11:07:47.783,-0.0137, 0.1354,-0.9642, 0.0012,-0.0243, 0.0229,-0.0330, 0.0067,-0.0112,-0.0151,-0.1604,-2.0048,-0.4183,-0.9082, 0.0149, 0.8957,-0.4151,-0.1597, 0.1512,-0.0535, 0.9871,-0.0494, 0.0635,-0.8397, 0.5370,41.388830,2.158182, 2.5935, 356.6, 32.215282, 8.0, 3.0, 45.4,Automotive,High, 102.5698, 7.8001, 166.3363, 81.0982,-614.2252,-22.7340, 12.3864,-0.4976
04-Feb-2024 11:07:47.788,-0.0137, 0.1354,-0.9642, 0.0011,-0.0242, 0.0229,-0.0247, 0.0087,-0.0101,-0.0150,-0.1603,-2.0048,-0.4183,-0.9082, 0.0148, 0.8957,-0.4151,-0.1596, 0.1511,-0.0535, 0.9871,-0.0494, 0.0635,-0.8397, 0.5370,41.388830,2.158182, 2.5935, 356.6, 32.215282, 8.0, 3.0, 45.4,Automotive,High, 102.5698, 7.8001, 166.3363, 81.0982,-614.2252,-22.7340, 12.3864,-0.4976
04-Feb-2024 11:07:47.792,-0.0085, 0.1398,-0.9747, 0.0064,-0.0198, 0.0124,-0.0247, 0.0087,-0.0101,-0.0150,-0.1603,-2.0048,-0.4183,-0.9082, 0.0148, 0.8957,-0.4151,-0.1596, 0.1511,-0.0535, 0.9871,-0.0494, 0.0634,-0.8397, 0.5370,41.388830,2.158182, 2.5935, 356.6, 32.215282, 8.0, 3.0, 45.4,Automotive,High, 102.5698, 7.8001, 166.3363, 81.0982,-614.2252,-22.7340, 12.3864,-0.4976
04-Feb-2024 11:07:47.796,-0.0085, 0.1398,-0.9747, 0.0064,-0.0198, 0.0124,-0.0332, 0.0033,-0.0098,-0.0150,-0.1603,-2.0048,-0.4183,-0.9082, 0.0148, 0.8957,-0.4151,-0.1596, 0.1511,-0.0535, 0.9871,-0.0494, 0.0634,-0.8397, 0.5370,41.388830,2.158182, 2.5935, 356.6, 32.215282, 8.0, 3.0, 45.4,Automotive,High, 102.5698, 7.8001, 166.3363, 81.0982,-614.2252,-22.7340, 12.3864,-0.4976
04-Feb-2024 11:07:47.802,-0.0020, 0.1424,-0.9861, 0.0128,-0.0171, 0.0010,-0.0332, 0.0033,-0.0098,-0.0150,-0.1602,-2.0048,-0.4183,-0.9082, 0.0148, 0.8957,-0.4151,-0.1596, 0.1511,-0.0535, 0.9871,-0.0494, 0.0634,-0.8397, 0.5370,41.388830,2.158182, 2.5935, 356.6, 32.215282, 8.0, 3.0, 45.4,Automotive,High, 102.5698, 7.8001, 166.3363, 81.0982,-614.2252,-22.6356, 12.7432,-0.3893
04-Feb-2024 11:07:47.806,-0.0020, 0.1424,-0.9861, 0.0129,-0.0172, 0.0010,-0.0444,-0.0055,-0.0122,-0.0151,-0.1603,-2.0048,-0.4183,-0.9082, 0.0149, 0.8956,-0.4151,-0.1596, 0.1511,-0.0535, 0.9871,-0.0494, 0.0634,-0.8397, 0.5370,41.388830,2.158182, 2.5935, 356.6, 32.215282, 8.0, 3.0, 45.4,Automotive,High, 102.5698, 7.8001, 166.3363, 81.0982,-614.2252,-22.6356, 12.7432,-0.3893
04-Feb-2024 11:07:47.810,-0.0128, 0.1361,-0.9765, 0.0021,-0.0235, 0.0105,-0.0444,-0.0055,-0.0122,-0.0151,-0.1603,-2.0048,-0.4183,-0.9082, 0.0149, 0.8956,-0.4151,-0.1596, 0.1512,-0.0534, 0.9871,-0.0494, 0.0634,-0.8397, 0.5370,41.388830,2.158182, 2.5935, 356.6, 32.215282, 8.0, 3.0, 45.4,Automotive,High, 102.5698, 7.8001, 166.3363, 81.0982,-614.2252,-22.6356, 12.7432,-0.3893
04-Feb-2024 11:07:47.816,-0.0128, 0.1361,-0.9765, 0.0021,-0.0235, 0.0105,-0.0322, 0.0110,-0.0100,-0.0151,-0.1604,-2.0048,-0.4183,-0.9082, 0.0149, 0.8956,-0.4151,-0.1597, 0.1512,-0.0535, 0.9871,-0.0494, 0.0635,-0.8397, 0.5370,41.388830,2.158182, 2.5935, 356.6, 32.215282, 8.0, 3.0, 45.4,Automotive,High, 102.5698, 7.8001, 166.3363, 81.0982,-614.2252,-22.6356, 12.7432,-0.3893
04-Feb-2024 11:07:47.821,-0.0200, 0.1369,-0.9585,-0.0051,-0.0227, 0.0285,-0.0322, 0.0110,-0.0100,-0.0150,-0.1603,-2.0048,-0.4183,-0.9082, 0.0148, 0.8956,-0.4152,-0.1596, 0.1511,-0.0535, 0.9871,-0.0494, 0.0634,-0.8397, 0.5370,41.388830,2.158182, 2.5935, 356.6, 32.215282, 8.0, 3.0, 45.4,Automotive,High, 102.5698, 7.8001, 166.8879, 81.1062,-614.3746,-22.6911, 12.6398,-0.5195
04-Feb-2024 11:07:47.826,-0.0200, 0.1369,-0.9585,-0.0052,-0.0226, 0.0285,-0.0162, 0.0094,-0.0120,-0.0150,-0.1602,-2.0049,-0.4183,-0.9082, 0.0148, 0.8957,-0.4152,-0.1595, 0.1510,-0.0535, 0.9871,-0.0494, 0.0634,-0.8397, 0.5370,41.388830,2.158182, 2.5935, 356.6, 32.215282, 8.0, 3.0, 45.4,Automotive,High, 102.5698, 7.8001, 166.8879, 81.1062,-614.3746,-22.6911, 12.6398,-0.5195
04-Feb-2024 11:07:47.830,-0.0200, 0.1369,-0.9585,-0.0052,-0.0226, 0.0285,-0.0162, 0.0094,-0.0120,-0.0150,-0.1602,-2.0049,-0.4183,-0.9082, 0.0148, 0.8957,-0.4152,-0.1595, 0.1510,-0.0535, 0.9871,-0.0494, 0.0634,-0.8397, 0.5370,41.388830,2.158182, 2.5935, 356.6, 32.215282, 8.0, 3.0, 45.4,Automotive,High, 102.5698, 7.8001, 166.8879, 81.1062,-614.3746,-22.6911, 12.6398,-0.5195
04-Feb-2024 11:07:47.834,-0.0018, 0.1441,-0.9726, 0.0130,-0.0154, 0.0145,-0.0162, 0.0094,-0.0120,-0.0150,-0.1601,-2.0049,-0.4183,-0.9082, 0.0148, 0.8957,-0.4152,-0.1594, 0.1509,-0.0535, 0.9871,-0.0493, 0.0634,-0.8397, 0.5370,41.388830,2.158182, 2.5935, 356.6, 32.215282, 8.0, 3.0, 45.4,Automotive,High, 102.5698, 7.8001, 166.8879, 81.1062,-614.3746,-22.6911, 12.6398,-0.5195
04-Feb-2024 11:07:47.839,-0.0018, 0.1441,-0.9726, 0.0130,-0.0154, 0.0145,-0.0395, 0.0011,-0.0098,-0.0150,-0.1601,-2.0049,-0.4183,-0.9082, 0.0148, 0.8957,-0.4152,-0.1594, 0.1509,-0.0535, 0.9871,-0.0493, 0.0634,-0.8397, 0.5370,41.388830,2.158182, 2.5935, 356.6, 32.215282, 8.0, 3.0, 45.4,Automotive,High, 102.5698, 7.8001, 166.8879, 81.1062,-614.3746,-22.6911, 12.6398,-0.5195
04-Feb-2024 11:07:47.843, 0.0046, 0.1465,-0.9861, 0.0194,-0.0130, 0.0010,-0.0395, 0.0011,-0.0098,-0.0150,-0.1601,-2.0049,-0.4183,-0.9082, 0.0148, 0.8957,-0.4152,-0.1595, 0.1510,-0.0535, 0.9871,-0.0493, 0.0634,-0.8397, 0.5370,41.388830,2.158182, 2.5935, 356.6, 32.215282, 8.0, 3.0, 45.4,Automotive,High, 102.5698, 7.8001, 166.8879, 81.1062,-614.3746,-22.6159, 12.5933,-0.3679
04-Feb-2024 11:07:47.847, 0.0046, 0.1465,-0.9861, 0.0194,-0.0130, 0.0010,-0.0419,-0.0035,-0.0096,-0.0150,-0.1602,-2.0049,-0.4183,-0.9082, 0.0149, 0.8956,-0.4152,-0.1595, 0.1510,-0.0534, 0.9871,-0.0494, 0.0634,-0.8397, 0.5370,41.388830,2.158182, 2.5935, 356.6, 32.215282, 8.0, 3.0, 45.4,Automotive,High, 102.5698, 7.8001, 166.8879, 81.1062,-614.3746,-22.6159, 12.5933,-0.3679
04-Feb-2024 11:07:47.852,-0.0129, 0.1465,-0.9774, 0.0020,-0.0130, 0.0097,-0.0419,-0.0035,-0.0096,-0.0151,-0.1602,-2.0049,-0.4183,-0.9082, 0.0149, 0.8956,-0.4152,-0.1595, 0.1511,-0.0534, 0.9871,-0.0494, 0.0634,-0.8397, 0.5370,41.388830,2.158182, 2.5935, 356.6, 32.215282, 8.0, 3.0, 45.4,Automotive,High, 102.5698, 7.8001, 166.8879, 81.1062,-614.3746,-22.6159, 12.5933,-0.3679
04-Feb-2024 11:07:47.856,-0.0129, 0.1465,-0.9774, 0.0020,-0.0131, 0.0097,-0.0472,-0.0022,-0.0087,-0.0151,-0.1603,-2.0049,-0.4183,-0.9082, 0.0149, 0.8956,-0.4152,-0.1596, 0.1511,-0.0534, 0.9871,-0.0494, 0.0634,-0.8397, 0.5370,41.388830,2.158182, 2.5935, 356.6, 32.215282, 8.0, 3.0, 45.4,Automotive,High, 102.5698, 7.8001, 166.8879, 81.1062,-614.3746,-22.6159, 12.5933,-0.3679
04-Feb-2024 11:07:47.861,-0.0245, 0.1370,-0.9445,-0.0095,-0.0226, 0.0426,-0.0472,-0.0022,-0.0087,-0.0151,-0.1603,-2.0048,-0.4183,-0.9082, 0.0149, 0.8956,-0.4152,-0.1596, 0.1512,-0.0534, 0.9871,-0.0495, 0.0634,-0.8397, 0.5370,41.388830,2.158182, 2.5935, 356.6, 32.215282, 8.0, 3.0, 45.4,Automotive,High, 102.5698, 7.8001, 166.8879, 81.1062,-614.3746,-22.7373, 12.6309,-0.3432
04-Feb-2024 11:07:47.865,-0.0245, 0.1370,-0.9445,-0.0096,-0.0226, 0.0426,-0.0472,-0.0022,-0.0087,-0.0151,-0.1603,-2.0048,-0.4183,-0.9082, 0.0149, 0.8956,-0.4151,-0.1596, 0.1512,-0.0534, 0.9871,-0.0494, 0.0634,-0.8397, 0.5370,41.388830,2.158182, 2.5935, 356.6, 32.215282, 8.0, 3.0, 45.4,Automotive,High, 102.5698, 7.8001, 166.8879, 81.1062,-614.3746,-22.7373, 12.6309,-0.3432
04-Feb-2024 11:07:47.869,-0.0245, 0.1370,-0.9445,-0.0096,-0.0226, 0.0426,-0.0248, 0.0278,-0.0029,-0.0151,-0.1603,-2.0048,-0.4183,-0.9082, 0.0149, 0.8956,-0.4151,-0.1596, 0.1512,-0.0534, 0.9871,-0.0494, 0.0634,-0.8397, 0.5370,41.388830,2.158182, 2.5935, 356.6, 32.215282, 8.0, 3.0, 45.4,Automotive,High, 102.5698, 7.8001, 166.6094, 81.2932,-614.2537,-22.7373, 12.6309,-0.3432
04-Feb-2024 11:07:47.873,-0.0092, 0.1412,-0.9324, 0.0056,-0.0183, 0.0547,-0.0248, 0.0278,-0.0029,-0.0150,-0.1602,-2.0048,-0.4183,-0.9082, 0.0148, 0.8957,-0.4151,-0.1595, 0.1510,-0.0535, 0.9871,-0.0494, 0.0634,-0.8397, 0.5370,41.388830,2.158182, 2.5935, 356.6, 32.215282, 8.0, 3.0, 45.4,Automotive,High, 102.5698, 7.8001, 166.6094, 81.2932,-614.2537,-22.7373, 12.6309,-0.3432
04-Feb-2024 11:07:47.877,-0.0092, 0.1412,-0.9324, 0.0056,-0.0180, 0.0548, 0.0441,-0.0246,-0.0170,-0.0150,-0.1599,-2.0048,-0.4183,-0.9082, 0.0148, 0.8957,-0.4152,-0.1592, 0.1507,-0.0533, 0.9871,-0.0493, 0.0633,-0.8397, 0.5370,41.388830,2.158182, 2.5935, 356.6, 32.215282, 8.0, 3.0, 45.4,Automotive,High, 102.5698, 7.8001, 166.6094, 81.2932,-614.2537,-22.7373, 12.6309,-0.3432
04-Feb-2024 11:07:47.882, 0.0206, 0.1673,-1.0077, 0.0355, 0.0084,-0.0205, 0.0441,-0.0246,-0.0170,-0.0151,-0.1596,-2.0048,-0.4183,-0.9082, 0.0149, 0.8957,-0.4152,-0.1589, 0.1505,-0.0532, 0.9872,-0.0492, 0.0631,-0.8397, 0.5370,41.388830,2.158182, 2.5935, 356.6, 32.215282, 8.0, 3.0, 45.4,Automotive,High, 102.5698, 7.8001, 166.6094, 81.2932,-614.2537,-22.7138, 12.7085,-0.4183
04-Feb-2024 11:07:47.886, 0.0206, 0.1673,-1.0077, 0.0355, 0.0084,-0.0205,-0.0778, 0.0213,-0.0057,-0.0150,-0.1596,-2.0048,-0.4183,-0.9082, 0.0148, 0.8957,-0.4152,-0.1589, 0.1505,-0.0532, 0.9872,-0.0492, 0.0631,-0.8397, 0.5370,41.388830,2.158182, 2.5935, 356.6, 32.215282, 8.0, 3.0, 45.4,Automotive,High, 102.5698, 7.8001, 166.6094, 81.2932,-614.2537,-22.7138, 12.7085,-0.4183
04-Feb-2024 11:07:47.890, 0.0206, 0.1673,-1.0077, 0.0355, 0.0084,-0.0205,-0.0778, 0.0213,-0.0057,-0.0150,-0.1596,-2.0048,-0.4183,-0.9082, 0.0148, 0.8957,-0.4152,-0.1589, 0.1505,-0.0532, 0.9872,-0.0492, 0.0631,-0.8397, 0.5370,41.388830,2.158182, 2.5935, 356.6, 32.215282, 8.0, 3.0, 45.4,Automotive,High, 102.5698, 7.8001, 166.6094, 81.2932,-614.2537,-22.7138, 12.7085,-0.4183
04-Feb-2024 11:07:47.895,-0.0434, 0.1422,-1.0369,-0.0285,-0.0174,-0.0498,-0.0778, 0.0213,-0.0057,-0.0151,-0.1603,-2.0048,-0.4183,-0.9082, 0.0149, 0.8956,-0.4151,-0.1596, 0.1511,-0.0534, 0.9871,-0.0494, 0.0634,-0.8397, 0.5370,41.388830,2.158182, 2.5935, 356.6, 32.215282, 8.0, 3.0, 45.4,Automotive,High, 102.5698, 7.8001, 166.6094, 81.2932,-614.2537,-22.8285, 12.6248,-0.5861
04-Feb-2024 11:07:47.899,-0.0434, 0.1422,-1.0369,-0.0285,-0.0174,-0.0498,-0.1015,-0.0401,-0.0138,-0.0151,-0.1603,-2.0048,-0.4183,-0.9082, 0.0149, 0.8956,-0.4151,-0.1596, 0.1511,-0.0534, 0.9871,-0.0494, 0.0634,-0.8397, 0.5370,41.388830,2.158182, 2.5935, 356.6, 32.215282, 8.0, 3.0, 45.4,Automotive,High, 102.5698, 7.8001, 166.6094, 81.2932,-614.2537,-22.8285, 12.6248,-0.5861
04-Feb-2024 11:07:47.904,-0.0079, 0.1367,-0.9784, 0.0072,-0.0231, 0.0086,-0.1015,-0.0401,-0.0138,-0.0153,-0.1605,-2.0048,-0.4183,-0.9082, 0.0151, 0.8956,-0.4151,-0.1598, 0.1514,-0.0533, 0.9870,-0.0496, 0.0634,-0.8397, 0.5370,41.388830,2.158182, 2.5935, 356.6, 32.215282, 8.0, 3.0, 45.4,Automotive,High, 102.5698, 7.8001, 166.7092, 81.1777,-614.3630,-22.8285, 12.6248,-0.5861
04-Feb-2024 11:07:47.908,-0.0079, 0.1367,-0.9784, 0.0071,-0.0231, 0.0086,-0.0082, 0.0534,-0.0074,-0.0152,-0.1605,-2.0048,-0.4183,-0.9082, 0.0150, 0.8956,-0.4151,-0.1598, 0.1514,-0.0534, 0.9870,-0.0495, 0.0635,-0.8397, 0.5370,41.388830,2.158182, 2.5935, 356.6, 32.215282, 8.0, 3.0, 45.4,Automotive,High, 102.5698, 7.8001, 166.7092, 81.1777,-614.3630,-22.8285, 12.6248,-0.5861
04-Feb-2024 11:07:47.913,-0.0145, 0.1643,-0.9186, 0.0003, 0.0047, 0.0685,-0.0082, 0.0534,-0.0074,-0.0150,-0.1602,-2.0048,-0.4183,-0.9082, 0.0148, 0.8957,-0.4151,-0.1596, 0.1511,-0.0535, 0.9871,-0.0494, 0.0634,-0.8397, 0.5370,41.388830,2.158182, 2.5935, 356.6, 32.215282, 8.0, 3.0, 45.4,Automotive,High, 102.5698, 7.8001, 166.7092, 81.1777,-614.3630,-22.8285, 12.6248,-0.5861
04-Feb-2024 11:07:47.918,-0.0145, 0.1643,-0.9186, 0.0003, 0.0050, 0.0685, 0.0257,-0.0100,-0.0104,-0.0150,-0.1599,-2.0048,-0.4183,-0.9082, 0.0148, 0.8957,-0.4152,-0.1593, 0.1508,-0.0534, 0.9871,-0.0493, 0.0633,-0.8397, 0.5370,41.388830,2.158182, 2.5935, 356.6, 32.215282, 8.0, 3.0, 45.4,Automotive,High, 102.5698, 7.8001, 166.7092, 81.1777,-614.3630,-22.7587, 12.4950,-0.5421
04-Feb-2024 11:07:47.923, 0.0090, 0.1564,-0.9694, 0.0238,-0.0027, 0.0177, 0.0257,-0.0100,-0.0104,-0.0150,-0.1597,-2.0048,-0.4183,-0.9082, 0.0148, 0.8957,-0.4152,-0.1590, 0.1506,-0.0533, 0.9872,-0.0492, 0.0632,-0.8397, 0.5371,41.388830,2.158182, 2.5935, 356.6, 32.215282, 8.0, 3.0, 45.4,Automotive,High, 102.5698, 7.8001, 166.7092, 81.1777,-614.3630,-22.7587, 12.4950,-0.5421
04-Feb-2024 11:07:47.927, 0.0090, 0.1564,-0.9694, 0.0237,-0.0027, 0.0177,-0.0518, 0.0115,-0.0036,-0.0150,-0.1597,-2.0048,-0.4183,-0.9082, 0.0148, 0.8958,-0.4151,-0.1590, 0.1506,-0.0533, 0.9872,-0.0492, 0.0632,-0.8397, 0.5371,41.388830,2.158182, 2.5935, 356.6, 32.215282, 8.0, 3.0, 45.4,Automotive,High, 102.5698, 7.8001, 166.7092, 81.1777,-614.3630,-22.7587, 12.4950,-0.5421
04-Feb-2024 11:07:47.931,-0.0251, 0.1417,-1.0130,-0.0103,-0.0175,-0.0258,-0.0518, 0.0115,-0.0036,-0.0150,-0.1599,-2.0048,-0.4183,-0.9082, 0.0148, 0.8957,-0.4151,-0.1592, 0.1507,-0.0533, 0.9871,-0.0493, 0.0633,-0.8397, 0.5371,41.388830,2.158182, 2.5935, 356.6, 32.215282, 8.0, 3.0, 45.4,Automotive,High, 102.5698, 7.8001, 166.7092, 81.1777,-614.3630,-22.7587, 12.4950,-0.5421
04-Feb-2024 11:07:47.937,-0.0251, 0.1417,-1.0130,-0.0103,-0.0178,-0.0259,-0.0813,-0.0184,-0.0054,-0.0151,-0.1601,-2.0047,-0.4182,-0.9082, 0.0149, 0.8957,-0.4151,-0.1595, 0.1510,-0.0534, 0.9871,-0.0494, 0.0634,-0.8397, 0.5371,41.388830,2.158182, 2.5935, 356.6, 32.215282, 8.0, 3.0, 45.4,Automotive,High, 102.5698, 7.8001, 166.5476, 81.3827,-614.3165,-22.7202, 12.7275,-0.5606
04-Feb-2024 11:07:47.942,-0.0193, 0.1487,-0.9826,-0.0044,-0.0109, 0.0045,-0.0813,-0.0184,-0.0054,-0.0151,-0.1603,-2.0047,-0.4182,-0.9082, 0.0150, 0.8957,-0.4151,-0.1596, 0.1511,-0.0533, 0.9871,-0.0495, 0.0634,-0.8397, 0.5371,41.388830,2.158182, 2.5935, 356.6, 32.215282, 8.0, 3.0, 45.4,Automotive,High, 102.5698, 7.8001, 166.5476, 81.3827,-614.3165,-22.7202, 12.7275,-0.5606
04-Feb-2024 11:07:47.946,-0.0193, 0.1487,-0.9826,-0.0044,-0.0109, 0.0045,-0.0813,-0.0184,-0.0054,-0.0151,-0.1603,-2.0047,-0.4182,-0.9082, 0.0149, 0.8957,-0.4150,-0.1596, 0.1511,-0.0534, 0.9871,-0.0494, 0.0634,-0.8397, 0.5371,41.388830,2.158182, 2.5935, 356.6, 32.215282, 8.0, 3.0, 45.4,Automotive,High, 102.5698, 7.8001, 166.5476, 81.3827,-614.3165,-22.7202, 12.7275,-0.5606
04-Feb-2024 11:07:47.949,-0.0193, 0.1487,-0.9826,-0.0044,-0.0109, 0.0045,-0.0154, 0.0171,-0.0049,-0.0151,-0.1603,-2.0047,-0.4182,-0.9082, 0.0149, 0.8957,-0.4150,-0.1596, 0.1511,-0.0534, 0.9871,-0.0494, 0.0634,-0.8397, 0.5371,41.388830,2.158182, 2.5935, 356.6, 32.215282, 8.0, 3.0, 45.4,Automotive,High, 102.5698, 7.8001, 166.5476, 81.3827,-614.3165,-22.7202, 12.7275,-0.5606
04-Feb-2024 11:07:47.954,-0.0112, 0.1614,-0.9434, 0.0037, 0.0019, 0.0437,-0.0154, 0.0171,-0.0049,-0.0151,-0.1601,-2.0047,-0.4182,-0.9082, 0.0149, 0.8957,-0.4150,-0.1594, 0.1510,-0.0534, 0.9871,-0.0494, 0.0634,-0.8397, 0.5371,41.388830,2.158182, 2.5935, 356.6, 32.215282, 8.0, 3.0, 45.4,Automotive,High, 102.5698, 7.8001, 166.5476, 81.3827,-614.3165,-22.7202, 12.7275,-0.5606
04-Feb-2024 11:07:47.958,-0.0112, 0.1614,-0.9434, 0.0037, 0.0021, 0.0437,-0.0010, 0.0043,-0.0072,-0.0150,-0.1600,-2.0047,-0.4182,-0.9082, 0.0148, 0.8958,-0.4150,-0.1593, 0.1508,-0.0533, 0.9871,-0.0493, 0.0633,-0.8397, 0.5371,41.388830,2.158182, 2.5935, 356.6, 32.215282, 8.0, 3.0, 45.4,Automotive,High, 102.5698, 7.8001, 166.5476, 81.3827,-614.3165,-22.5845, 12.9240,-0.6314
04-Feb-2024 11:07:47.963,-0.0094, 0.1564,-0.9710, 0.0054,-0.0028, 0.0162,-0.0010, 0.0043,-0.0072,-0.0150,-0.1599,-2.0046,-0.4182,-0.9083, 0.0148, 0.8958,-0.4150,-0.1592, 0.1507,-0.0533, 0.9871,-0.0493, 0.0633,-0.8397, 0.5371,41.388830,2.158182, 2.5935, 356.6, 32.215282, 8.0, 3.0, 45.4,Automotive,High, 102.5698, 7.8001, 166.5476, 81.3827,-614.3165,-22.5845, 12.9240,-0.6314
04-Feb-2024 11:07:47.967,-0.0094, 0.1564,-0.9710, 0.0054,-0.0028, 0.0162,-0.0481, 0.0000,-0.0050,-0.0150,-0.1599,-2.0046,-0.4181,-0.9083, 0.0148, 0.8958,-0.4150,-0.1592, 0.1507,-0.0533, 0.9871,-0.0493, 0.0633,-0.8397, 0.5371,41.388830,2.158182, 2.5935, 356.6, 32.215282, 8.0, 3.0, 45.4,Automotive,High, 102.5698, 7.8001, 166.5476, 81.3827,-614.3165,-22.5845, 12.9240,-0.6314
04-Feb-2024 11:07:47.971,-0.0259, 0.1488,-1.0012,-0.0110,-0.0105,-0.0141,-0.0481, 0.0000,-0.0050,-0.0151,-0.1600,-2.0046,-0.4181,-0.9083, 0.0149, 0.8958,-0.4150,-0.1593, 0.1509,-0.0533, 0.9871,-0.0493, 0.0633,-0.8397, 0.5371,41.388830,2.158182, 2.5935, 356.6, 32.215282, 8.0, 3.0, 45.4,Automotive,High, 102.5698, 7.8001, 166.5476, 81.3827,-614.3165,-22.5845, 12.9240,-0.6314
04-Feb-2024 11:07:47.976,-0.0259, 0.1488,-1.0012,-0.0110,-0.0107,-0.0141,-0.0481, 0.0000,-0.0050,-0.0151,-0.1601,-2.0046,-0.4181,-0.9083, 0.0149, 0.8958,-0.4149,-0.1594, 0.1510,-0.0533, 0.9871,-0.0494, 0.0633,-0.8397, 0.5371,41.388830,2.158182, 2.5935, 356.6, 32.215282, 8.0, 3.0, 45.4,Automotive,High, 102.5698, 7.8001, 166.5476, 81.3827,-614.3165,-22.8980, 12.7178,-0.7615
04-Feb-2024 11:07:47.980,-0.0259, 0.1488,-1.0012,-0.0110,-0.0107,-0.0141,-0.0570,-0.0004,-0.0019,-0.0151,-0.1601,-2.0046,-0.4181,-0.9083, 0.0149, 0.8958,-0.4149,-0.1594, 0.1510,-0.0533, 0.9871,-0.0494, 0.0633,-0.8397, 0.5371,41.388830,2.158182, 2.5935, 356.6, 32.215282, 8.0, 3.0, 45.4,Automotive,High, 102.5698, 7.8001, 166.5476, 81.3827,-614.3165,-22.8980, 12.7178,-0.7615
04-Feb-2024 11:07:47.985,-0.0215, 0.1526,-0.9814,-0.0066,-0.0069, 0.0057,-0.0570,-0.0004,-0.0019,-0.0151,-0.1602,-2.0046,-0.4181,-0.9083, 0.0149, 0.8958,-0.4149,-0.1595, 0.1510,-0.0533, 0.9871,-0.0494, 0.0634,-0.8397, 0.5372,41.388830,2.158182, 2.5935, 356.6, 32.215282, 8.0, 3.0, 45.4,Automotive,High, 102.5698, 7.8001, 166.5476, 81.3827,-614.3165,-22.8980, 12.7178,-0.7615
04-Feb-2024 11:07:47.990,-0.0215, 0.1526,-0.9814,-0.0066,-0.0068, 0.0057,-0.0217, 0.0058,-0.0044,-0.0151,-0.1602,-2.0045,-0.4180,-0.9083, 0.0149, 0.8958,-0.4149,-0.1595, 0.1510,-0.0533, 0.9871,-0.0494, 0.0634,-0.8396, 0.5372,41.388830,2.158182, 2.5935, 356.6, 32.215282, 8.0, 3.0, 45.4,Automotive,High, 102.5698, 7.8001, 166.7133, 81.1939,-614.4109,-22.8980, 12.7178,-0.7615
04-Feb-2024 11:07:47.994,-0.0077, 0.1627,-0.9605, 0.0072, 0.0032, 0.0266,-0.0217, 0.0058,-0.0044,-0.0151,-0.1601,-2.0045,-0.4180,-0.9083, 0.0149, 0.8958,-0.4149,-0.1594, 0.1510,-0.0533, 0.9871,-0.0494, 0.0633,-0.8396, 0.5372,41.388830,2.158182, 2.5935, 356.6, 32.215282, 8.0, 3.0, 45.4,Automotive,High, 102.5698, 7.8001, 166.7133, 81.1939,-614.4109,-22.8980, 12.7178,-0.7615
04-Feb-2024 11:07:47.999,-0.0077, 0.1627,-0.9605, 0.0072, 0.0033, 0.0266,-0.0190,-0.0025,-0.0035,-0.0151,-0.1600,-2.0045,-0.4180,-0.9083, 0.0149, 0.8958,-0.4149,-0.1594, 0.1509,-0.0532, 0.9871,-0.0494, 0.0633,-0.8396, 0.5372,41.388830,2.158182, 2.5935, 356.6, 32.215282, 8.0, 3.0, 45.4,Automotive,High, 102.5698, 7.8001, 166.7133, 81.1939,-614.4109,-22.9680, 12.6035,-0.5688
04-Feb-2024 11:07:48.003,-0.0205, 0.1631,-0.9773,-0.0056, 0.0038, 0.0098,-0.0190,-0.0025,-0.0035,-0.0151,-0.1600,-2.0045,-0.4180,-0.9083, 0.0149, 0.8958,-0.4149,-0.1593, 0.1509,-0.0533, 0.9871,-0.0494, 0.0633,-0.8396, 0.5372,41.388830,2.158182, 2.5935, 356.6, 32.215282, 8.0, 3.0, 45.4,Automotive,High, 102.5698, 7.8001, 166.7133, 81.1939,-614.4109,-22.9680, 12.6035,-0.5688
04-Feb-2024 11:07:48.008,-0.0205, 0.1631,-0.9773,-0.0056, 0.0038, 0.0098,-0.0427,-0.0041,-0.0031,-0.0151,-0.1600,-2.0045,-0.4180,-0.9083, 0.0149, 0.8958,-0.4149,-0.1594, 0.1509,-0.0533, 0.9871,-0.0494, 0.0633,-0.8396, 0.5372,41.388830,2.158182, 2.5935, 356.6, 32.215282, 8.0, 3.0, 45.4,Automotive,High, 102.5698, 7.8001, 166.7133, 81.1939,-614.4109,-22.9680, 12.6035,-0.5688
04-Feb-2024 11:07:48.014,-0.0298, 0.1603,-0.9898,-0.0149, 0.0009,-0.0027,-0.0427,-0.0041,-0.0031,-0.0151,-0.1601,-2.0045,-0.4180,-0.9083, 0.0149, 0.8958,-0.4148,-0.1594, 0.1510,-0.0533, 0.9871,-0.0494, 0.0633,-0.8396, 0.5372,41.388830,2.158182, 2.5935, 356.6, 32.215282, 8.0, 3.0, 45.4,Automotive,High, 102.5698, 7.8001, 166.7133, 81.1939,-614.4109,-22.8850, 12.7199,-0.5351
04-Feb-2024 11:07:48.020,-0.0298, 0.1603,-0.9898,-0.0149, 0.0008,-0.0027,-0.0474, 0.0050,-0.0039,-0.0151,-0.1602,-2.0045,-0.4180,-0.9083, 0.0149, 0.8958,-0.4148,-0.1595, 0.1511,-0.0533, 0.9871,-0.0494, 0.0634,-0.8396, 0.5372,41.388830,2.158182, 2.5935, 356.6, 32.215282, 8.0, 3.0, 45.4,Automotive,High, 102.5698, 7.8001, 166.7133, 81.1939,-614.4109,-22.8850, 12.7199,-0.5351
04-Feb-2024 11:07:48.030,-0.0184, 0.1637,-0.9725,-0.0035, 0.0042, 0.0146,-0.0214, 0.0069,-0.0061,-0.0151,-0.1602,-2.0044,-0.4179,-0.9084, 0.0149, 0.8958,-0.4148,-0.1595, 0.1511,-0.0533, 0.9871,-0.0494, 0.0634,-0.8396, 0.5372,41.388830,2.158182, 2.5935, 356.6, 32.215282, 8.0, 3.0, 45.4,Automotive,High, 102.5680, 7.9534, 166.7133, 81.1939,-614.4109,-22.8850, 12.7199,-0.5351
04-Feb-2024 11:07:48.035,-0.0071, 0.1727,-0.9684, 0.0078, 0.0132, 0.0187,-0.0214, 0.0069,-0.0061,-0.0151,-0.1601,-2.0044,-0.4179,-0.9084, 0.0149, 0.8958,-0.4148,-0.1595, 0.1510,-0.0533, 0.9871,-0.0494, 0.0633,-0.8396, 0.5372,41.388830,2.158182, 2.5935, 356.6, 32.215282, 8.0, 3.0, 45.4,Automotive,High, 102.5680, 7.9534, 166.2697, 81.3062,-614.2875,-22.5730, 12.7112,-0.6885
04-Feb-2024 11:07:48.039,-0.0071, 0.1727,-0.9684, 0.0078, 0.0133, 0.0187,-0.0247,-0.0016,-0.0081,-0.0151,-0.1601,-2.0044,-0.4179,-0.9084, 0.0149, 0.8958,-0.4148,-0.1594, 0.1510,-0.0533, 0.9871,-0.0494, 0.0633,-0.8396, 0.5372,41.388830,2.158182, 2.5935, 356.6, 32.215282, 8.0, 3.0, 45.4,Automotive,High, 102.5680, 7.9534, 166.2697, 81.3062,-614.2875,-22.5730, 12.7112,-0.6885
04-Feb-2024 11:07:48.044,-0.0143, 0.1684,-0.9834, 0.0007, 0.0089, 0.0037,-0.0247,-0.0016,-0.0081,-0.0151,-0.1601,-2.0044,-0.4179,-0.9084, 0.0149, 0.8959,-0.4148,-0.1594, 0.1510,-0.0532, 0.9871,-0.0494, 0.0633,-0.8396, 0.5372,41.388830,2.158182, 2.5935, 356.6, 32.215282, 8.0, 3.0, 45.4,Automotive,High, 102.5680, 7.9534, 166.2697, 81.3062,-614.2875,-22.5730, 12.7112,-0.6885
04-Feb-2024 11:07:48.049,-0.0143, 0.1684,-0.9834, 0.0007, 0.0089, 0.0037,-0.0402, 0.0004,-0.0076,-0.0151,-0.1601,-2.0044,-0.4179,-0.9084, 0.0150, 0.8959,-0.4148,-0.1594, 0.1510,-0.0532, 0.9871,-0.0494, 0.0633,-0.8396, 0.5372,41.388830,2.158182, 2.5935, 356.6, 32.215282, 8.0, 3.0, 45.4,Automotive,High, 102.5680, 7.9534, 166.6017, 81.2904,-614.2504,-22.5730, 12.7112,-0.6885
04-Feb-2024 11:07:48.054,-0.0286, 0.1509,-0.9881,-0.0136,-0.0086,-0.0010,-0.0402, 0.0004,-0.0076,-0.0152,-0.1601,-2.0044,-0.4179,-0.9084, 0.0150, 0.8959,-0.4148,-0.1594, 0.1510,-0.0532, 0.9871,-0.0494, 0.0633,-0.8396, 0.5372,41.388830,2.158182, 2.5935, 356.6, 32.215282, 8.0, 3.0, 45.4,Automotive,High, 102.5680, 7.9534, 166.6017, 81.2904,-614.2504,-22.7640, 12.6725,-0.6160
04-Feb-2024 11:07:48.058,-0.0286, 0.1509,-0.9881,-0.0136,-0.0086,-0.0010,-0.0304, 0.0060,-0.0097,-0.0152,-0.1601,-2.0044,-0.4179,-0.9084, 0.0150, 0.8959,-0.4148,-0.1595, 0.1511,-0.0532, 0.9871,-0.0494, 0.0633,-0.8396, 0.5372,41.388830,2.158182, 2.5935, 356.6, 32.215282, 8.0, 3.0, 45.4,Automotive,High, 102.5680, 7.9534, 166.6017, 81.2904,-614.2504,-22.7640, 12.6725,-0.6160
04-Feb-2024 11:07:48.062,-0.0233, 0.1411,-0.9770,-0.0083,-0.0183, 0.0101,-0.0304, 0.0060,-0.0097,-0.0152,-0.1601,-2.0044,-0.4179,-0.9084, 0.0150, 0.8959,-0.4148,-0.1594, 0.1510,-0.0532, 0.9871,-0.0494, 0.0633,-0.8396, 0.5372,41.388830,2.158182, 2.5935, 356.6, 32.215282, 8.0, 3.0, 45.4,Automotive,High, 102.5680, 7.9534, 166.6017, 81.2904,-614.2504,-22.7640, 12.6725,-0.6160
04-Feb-2024 11:07:48.067,-0.0233, 0.1411,-0.9770,-0.0083,-0.0182, 0.0101,-0.0304, 0.0060,-0.0097,-0.0151,-0.1600,-2.0044,-0.4179,-0.9084, 0.0149, 0.8959,-0.4148,-0.1593, 0.1509,-0.0532, 0.9871,-0.0494, 0.0633,-0.8396, 0.5372,41.388830,2.158182, 2.5935, 356.6, 32.215282, 8.0, 3.0, 45.4,Automotive,High, 102.5680, 7.9534, 166.6017, 81.2904,-614.2504,-22.7640, 12.6725,-0.6160
04-Feb-2024 11:07:48.077,-0.0127, 0.1373,-0.9830, 0.0022,-0.0220, 0.0041,-0.0194, 0.0098,-0.0104,-0.0151,-0.1600,-2.0044,-0.4179,-0.9084, 0.0149, 0.8959,-0.4148,-0.1593, 0.1509,-0.0532, 0.9871,-0.0494, 0.0633,-0.8396, 0.5372,41.388830,2.158182, 2.5935, 356.6, 32.215282, 8.0, 3.0, 45.4,Automotive,High, 102.5680, 7.9534, 166.6017, 81.2904,-614.2504,-22.8393, 12.7512,-0.8807
04-Feb-2024 11:07:48.085,-0.0181, 0.1243,-0.9956,-0.0032,-0.0349,-0.0085,-0.0263,-0.0014,-0.0097,-0.0151,-0.1600,-2.0044,-0.4179,-0.9084, 0.0150, 0.8959,-0.4148,-0.1593, 0.1509,-0.0532, 0.9871,-0.0494, 0.0633,-0.8396, 0.5372,41.388830,2.158182, 2.5935, 356.6, 32.215282, 8.0, 3.0, 45.4,Automotive,High, 102.5680, 7.9534, 166.6017, 81.2904,-614.2504,-22.8393, 12.7512,-0.8807
04-Feb-2024 11:07:48.090,-0.0181, 0.1243,-0.9956,-0.0032,-0.0350,-0.0085,-0.0373, 0.0016,-0.0093,-0.0152,-0.1600,-2.0044,-0.4179,-0.9084, 0.0150, 0.8959,-0.4148,-0.1593, 0.1509,-0.0532, 0.9871,-0.0494, 0.0633,-0.8396, 0.5372,41.388830,2.158182, 2.5935, 356.6, 32.215282, 8.0, 3.0, 45.4,Automotive,High, 102.5680, 7.9534, 166.6017, 81.2904,-614.2504,-22.8393, 12.7512,-0.8807
04-Feb-2024 11:07:48.095,-0.0296, 0.1032,-0.9871,-0.0146,-0.0561,-0.0000,-0.0373, 0.0016,-0.0093,-0.0152,-0.1600,-2.0044,-0.4179,-0.9084, 0.0150, 0.8959,-0.4148,-0.1593, 0.1509,-0.0531, 0.9871,-0.0494, 0.0633,-0.8396, 0.5372,41.388830,2.158182, 2.5935, 356.6, 32.215282, 8.0, 3.0, 45.4,Automotive,High, 102.5680, 7.9534, 166.3728, 81.0441,-614.4990,-22.9268, 12.4617,-0.7123
04-Feb-2024 11:07:48.099,-0.0296, 0.1032,-0.9871,-0.0147,-0.0560, 0.0000,-0.0150, 0.0127,-0.0102,-0.0152,-0.1599,-2.0044,-0.4179,-0.9084, 0.0150, 0.8959,-0.4148,-0.1593, 0.1509,-0.0532, 0.9871,-0.0494, 0.0632,-0.8396, 0.5372,41.388830,2.158182, 2.5935, 356.6, 32.215282, 8.0, 3.0, 45.4,Automotive,High, 102.5680, 7.9534, 166.3728, 81.0441,-614.4990,-22.9268, 12.4617,-0.7123
04-Feb-2024 11:07:48.104,-0.0240, 0.0961,-0.9836,-0.0090,-0.0631, 0.0036,-0.0150, 0.0127,-0.0102,-0.0151,-0.1598,-2.0044,-0.4179,-0.9083, 0.0149, 0.8959,-0.4148,-0.1592, 0.1508,-0.0531, 0.9871,-0.0493, 0.0632,-0.8396, 0.5372,41.388830,2.158182, 2.5935, 356.6, 32.215282, 8.0, 3.0, 45.4,Automotive,High, 102.5680, 7.9534, 166.3728, 81.0441,-614.4990,-22.9268, 12.4617,-0.7123
04-Feb-2024 11:07:48.109,-0.0240, 0.0961,-0.9836,-0.0091,-0.0629, 0.0036,-0.0019, 0.0175,-0.0115,-0.0151,-0.1597,-2.0044,-0.4180,-0.9083, 0.0149, 0.8959,-0.4148,-0.1590, 0.1506,-0.0531, 0.9872,-0.0493, 0.0632,-0.8396, 0.5372,41.388830,2.158182, 2.5935, 356.6, 32.215282, 8.0, 3.0, 45.4,Automotive,High, 102.5680, 7.9534, 166.3728, 81.0441,-614.4990,-22.9268, 12.4617,-0.7123
04-Feb-2024 11:07:48.123,-0.0233, 0.0588,-1.0095,-0.0085,-0.1001,-0.0223,-0.0320, 0.0031,-0.0117,-0.0150,-0.1596,-2.0045,-0.4180,-0.9083, 0.0148, 0.8959,-0.4149,-0.1589, 0.1505,-0.0532, 0.9872,-0.0492, 0.0631,-0.8397, 0.5372,41.388830,2.158182, 2.5935, 356.6, 32.215282, 8.0, 3.0, 45.4,Automotive,High, 102.5680, 7.9534, 166.3728, 81.0441,-614.4990,-23.2107, 12.5506,-0.7657
04-Feb-2024 11:07:48.129,-0.0233, 0.0588,-1.0095,-0.0085,-0.1001,-0.0223,-0.0232, 0.0060,-0.0110,-0.0150,-0.1596,-2.0045,-0.4180,-0.9083, 0.0148, 0.8959,-0.4149,-0.1589, 0.1505,-0.0532, 0.9872,-0.0492, 0.0631,-0.8397, 0.5372,41.388830,2.158182, 2.5935, 356.6, 32.215282, 8.0, 3.0, 45.4,Automotive,High, 102.5680, 7.9534, 166.3728, 81.0441,-614.4990,-23.1351, 12.4324,-0.6552
04-Feb-2024 11:07:48.133,-0.0271, 0.0426,-0.9900,-0.0123,-0.1162,-0.0028,-0.0232, 0.0060,-0.0110,-0.0150,-0.1595,-2.0045,-0.4180,-0.9083, 0.0148, 0.8959,-0.4149,-0.1588, 0.1504,-0.0531, 0.9872,-0.0492, 0.0631,-0.8397, 0.5372,41.388830,2.158182, 2.5935, 356.6, 32.215282, 8.0, 3.0, 45.4,Automotive,High, 102.5680, 7.9534, 166.3728, 81.0441,-614.4990,-23.1351, 12.4324,-0.6552
04-Feb-2024 11:07:48.137,-0.0271, 0.0426,-0.9900,-0.0123,-0.1161,-0.0028,-0.0097, 0.0176,-0.0111,-0.0149,-0.1594,-2.0045,-0.4180,-0.9083, 0.0147, 0.8959,-0.4149,-0.1587, 0.1503,-0.0532, 0.9872,-0.0491, 0.0631,-0.8397, 0.5372,41.388830,2.158182, 2.5935, 356.6, 32.215282, 8.0, 3.0, 45.4,Automotive,High, 102.5680, 7.9534, 166.3728, 81.0441,-614.4990,-23.1351, 12.4324,-0.6552
04-Feb-2024 11:07:48.142,-0.0200, 0.0408,-0.9841,-0.0053,-0.1178, 0.0031,-0.0097, 0.0176,-0.0111,-0.0149,-0.1593,-2.0045,-0.4181,-0.9083, 0.0147, 0.8959,-0.4149,-0.1586, 0.1501,-0.0531, 0.9872,-0.0491, 0.0630,-0.8397, 0.5372,41.388830,2.158182, 2.5935, 356.6, 32.215282, 8.0, 3.0, 45.4,Automotive,High, 102.5680, 7.9534, 166.6752, 81.2032,-614.3980,-23.1351, 12.4324,-0.6552
04-Feb-2024 11:07:48.153,-0.0102, 0.0395,-1.0107, 0.0045,-0.1188,-0.0234,-0.0003, 0.0088,-0.0109,-0.0148,-0.1590,-2.0045,-0.4181,-0.9083, 0.0146, 0.8960,-0.4150,-0.1583, 0.1499,-0.0531, 0.9873,-0.0490, 0.0629,-0.8397, 0.5372,41.388830,2.158182, 2.5935, 356.6, 32.215282, 8.0, 3.0, 45.4,Automotive,High, 102.5680, 7.9534, 166.6752, 81.2032,-614.3980,-23.0605, 12.5537,-0.6871
04-Feb-2024 11:07:48.158,-0.0102, 0.0395,-1.0107, 0.0045,-0.1188,-0.0234,-0.0382,-0.0020,-0.0108,-0.0148,-0.1590,-2.0045,-0.4181,-0.9083, 0.0147, 0.8960,-0.4150,-0.1583, 0.1499,-0.0531, 0.9873,-0.0490, 0.0629,-0.8397, 0.5372,41.388830,2.158182, 2.5935, 356.6, 32.215282, 8.0, 3.0, 45.4,Automotive,High, 102.5680, 7.9534, 166.6752, 81.2032,-614.3980,-23.0605, 12.5537,-0.6871
04-Feb-2024 11:07:48.164,-0.0206, 0.0277,-1.0074,-0.0059,-0.1306,-0.0201,-0.0382,-0.0020,-0.0108,-0.0149,-0.1590,-2.0046,-0.4181,-0.9083, 0.0147, 0.8959,-0.4150,-0.1583, 0.1499,-0.0530, 0.9873,-0.0490, 0.0629,-0.8397, 0.5372,41.388830,2.158182, 2.5935, 356.6, 32.215282, 8.0, 3.0, 45.4,Automotive,High, 102.5680, 7.9534, 166.6752, 81.2032,-614.3980,-23.0605, 12.5537,-0.6871
04-Feb-2024 11:07:48.170,-0.0206, 0.0277,-1.0074,-0.0059,-0.1306,-0.0201,-0.0222, 0.0045,-0.0119,-0.0149,-0.1590,-2.0046,-0.4181,-0.9083, 0.0147, 0.8959,-0.4150,-0.1583, 0.1499,-0.0530, 0.9873,-0.0490, 0.0629,-0.8397, 0.5372,41.388830,2.158182, 2.5935, 356.6, 32.215282, 8.0, 3.0, 45.4,Automotive,High, 102.5680, 7.9534, 166.3185, 81.2659,-614.6790,-23.2391, 12.5941,-0.8161
04-Feb-2024 11:07:48.193,-0.0137, 0.0275,-1.0068, 0.0010,-0.1302,-0.0194,-0.0136, 0.0056,-0.0099,-0.0148,-0.1583,-2.0046,-0.4181,-0.9083, 0.0146, 0.8960,-0.4151,-0.1576, 0.1492,-0.0528, 0.9874,-0.0488, 0.0627,-0.8397, 0.5372,41.388830,2.158182, 2.5935, 356.6, 32.215282, 8.0, 3.0, 45.4,Automotive,High, 102.5680, 7.9534, 166.3185, 81.2659,-614.6790,-23.1590, 12.6072,-0.7517
04-Feb-2024 11:07:48.201,-0.0137, 0.0275,-1.0068, 0.0010,-0.1302,-0.0194,-0.0408,-0.0036,-0.0088,-0.0148,-0.1583,-2.0046,-0.4181,-0.9083, 0.0147, 0.8960,-0.4151,-0.1577, 0.1493,-0.0528, 0.9874,-0.0488, 0.0627,-0.8397, 0.5372,41.388830,2.158182, 2.5935, 356.6, 32.215282, 8.0, 3.0, 45.4,Automotive,High, 102.5680, 7.9534, 166.3185, 81.2659,-614.6790,-23.1590, 12.6072,-0.7517
04-Feb-2024 11:07:48.211,-0.0239, 0.0237,-1.0004,-0.0092,-0.1339,-0.0130,-0.0179, 0.0054,-0.0099,-0.0149,-0.1582,-2.0046,-0.4181,-0.9083, 0.0147, 0.8960,-0.4151,-0.1576, 0.1492,-0.0527, 0.9874,-0.0488, 0.0626,-0.8397, 0.5372,41.388830,2.158182, 2.5935, 356.6, 32.215282, 8.0, 3.0, 45.4,Automotive,High, 102.5680, 7.9534, 166.3458, 81.2340,-614.2565,-23.0324, 12.7908,-0.5834
04-Feb-2024 11:07:48.266,-0.0105, 0.0276,-0.9709, 0.0040,-0.1278, 0.0168,-0.0042, 0.0185,-0.0077,-0.0147,-0.1561,-2.0045,-0.4181,-0.9083, 0.0146, 0.8964,-0.4151,-0.1554, 0.1472,-0.0519, 0.9877,-0.0482, 0.0617,-0.8398, 0.5372,41.388830,2.158182, 2.5935, 356.6, 32.215282, 8.0, 3.0, 45.4,Automotive,High, 102.5680, 7.9534, 166.3458, 81.2340,-614.2565,-23.0722, 12.5795,-0.6832
04-Feb-2024 11:07:48.275,-0.0082, 0.0376,-1.0026, 0.0064,-0.1173,-0.0148,-0.0216, 0.0033,-0.0085,-0.0147,-0.1555,-2.0045,-0.4181,-0.9083, 0.0145, 0.8965,-0.4151,-0.1549, 0.1467,-0.0517, 0.9878,-0.0480, 0.0615,-0.8398, 0.5373,41.388835,2.158191, 0.2668, 356.6, 32.257751, 8.0, 3.0, 45.4,Automotive,High, 102.5680, 7.9534, 166.3458, 81.2340,-614.2565,-23.0722, 12.5795,-0.6832
04-Feb-2024 11:07:48.283,-0.0221, 0.0298,-0.9879,-0.0074,-0.1249,-0.0000,-0.0566,-0.0006,-0.0053,-0.0148,-0.1553,-2.0044,-0.4181,-0.9083, 0.0146, 0.8965,-0.4151,-0.1546, 0.1465,-0.0515, 0.9879,-0.0480, 0.0614,-0.8398, 0.5373,41.388835,2.158191, 0.2668, 356.6, 32.257751, 8.0, 3.0, 45.4,Automotive,High, 102.5680, 7.9534, 166.3458, 81.2340,-614.2565,-22.8984, 12.4972,-0.7065
04-Feb-2024 11:07:48.288,-0.0221, 0.0298,-0.9879,-0.0074,-0.1249,-0.0000,-0.0566,-0.0006,-0.0053,-0.0148,-0.1553,-2.0044,-0.4180,-0.9083, 0.0146, 0.8965,-0.4151,-0.1547, 0.1466,-0.0515, 0.9879,-0.0480, 0.0614,-0.8398, 0.5373,41.388835,2.158191, 0.2668, 356.6, 32.257751, 8.0, 3.0, 45.4,Automotive,High, 102.5680, 7.9534, 166.4145, 81.0333,-614.4885,-22.8984, 12.4972,-0.7065
04-Feb-2024 11:07:48.294,-0.0221, 0.0335,-0.9533,-0.0075,-0.1208, 0.0346,-0.0302, 0.0064,-0.0064,-0.0148,-0.1549,-2.0044,-0.4180,-0.9083, 0.0146, 0.8966,-0.4151,-0.1543, 0.1462,-0.0514, 0.9879,-0.0479, 0.0612,-0.8398, 0.5373,41.388835,2.158191, 0.2668, 356.6, 32.257751, 8.0, 3.0, 45.4,Automotive,High, 102.5680, 7.9534, 166.4145, 81.0333,-614.4885,-22.8984, 12.4972,-0.7065
04-Feb-2024 11:07:48.299,-0.0221, 0.0335,-0.9533,-0.0076,-0.1206, 0.0346,-0.0034, 0.0233,-0.0054,-0.0147,-0.1548,-2.0044,-0.4180,-0.9083, 0.0145, 0.8966,-0.4151,-0.1541, 0.1460,-0.0514, 0.9879,-0.0478, 0.0612,-0.8398, 0.5373,41.388835,2.158191, 0.2668, 356.6, 32.257751, 8.0, 3.0, 45.4,Automotive,High, 102.5680, 7.9534, 166.4145, 81.0333,-614.4885,-22.8984, 12.4972,-0.7065
04-Feb-2024 11:07:48.303,-0.0123, 0.0480,-0.9657, 0.0022,-0.1057, 0.0223,-0.0034, 0.0233,-0.0054,-0.0146,-0.1543,-2.0044,-0.4180,-0.9083, 0.0145, 0.8967,-0.4151,-0.1537, 0.1456,-0.0513, 0.9880,-0.0476, 0.0610,-0.8398, 0.5373,41.388835,2.158191, 0.2668, 356.6, 32.257751, 8.0, 3.0, 45.4,Automotive,High, 102.5680, 7.9534, 166.4145, 81.0333,-614.4885,-23.2111, 12.4849,-0.8160
04-Feb-2024 11:07:48.308,-0.0123, 0.0480,-0.9657, 0.0021,-0.1056, 0.0223,-0.0034, 0.0233,-0.0054,-0.0146,-0.1542,-2.0044,-0.4180,-0.9083, 0.0144, 0.8967,-0.4151,-0.1536, 0.1455,-0.0513, 0.9880,-0.0476, 0.0610,-0.8398, 0.5373,41.388835,2.158191, 0.2668, 356.6, 32.257751, 8.0, 3.0, 45.4,Automotive,High, 102.5680, 7.9534, 166.4145, 81.0333,-614.4885,-23.2111, 12.4849,-0.8160
04-Feb-2024 11:07:48.312,-0.0123, 0.0480,-0.9657, 0.0021,-0.1056, 0.0223,-0.0322,-0.0008,-0.0071,-0.0146,-0.1542,-2.0044,-0.4180,-0.9083, 0.0144, 0.8967,-0.4151,-0.1536, 0.1455,-0.0513, 0.9880,-0.0476, 0.0610,-0.8398, 0.5373,41.388835,2.158191, 0.2668, 356.6, 32.257751, 8.0, 3.0, 45.4,Automotive,High, 102.5680, 7.9534, 166.4145, 81.0333,-614.4885,-23.2111, 12.4849,-0.8160
04-Feb-2024 11:07:48.319,-0.0071, 0.0555,-0.9986, 0.0074,-0.0980,-0.0106,-0.0664,-0.0050,-0.0060,-0.0147,-0.1541,-2.0043,-0.4180,-0.9083, 0.0145, 0.8967,-0.4151,-0.1535, 0.1455,-0.0511, 0.9880,-0.0476, 0.0609,-0.8398, 0.5373,41.388835,2.158191, 0.2668, 356.6, 32.257751, 8.0, 3.0, 45.4,Automotive,High, 102.5680, 7.9534, 166.4145, 81.0333,-614.4885,-23.2111, 12.4849,-0.8160
04-Feb-2024 11:07:48.323,-0.0252, 0.0527,-0.9799,-0.0107,-0.1006, 0.0082,-0.0664,-0.0050,-0.0060,-0.0147,-0.1540,-2.0043,-0.4180,-0.9083, 0.0146, 0.8968,-0.4151,-0.1534, 0.1454,-0.0510, 0.9881,-0.0476, 0.0609,-0.8398, 0.5374,41.388835,2.158191, 0.2668, 356.6, 32.257751, 8.0, 3.0, 45.4,Automotive,High, 102.5680, 7.9534, 166.4145, 81.0333,-614.4885,-23.1779, 12.5872,-0.6725
04-Feb-2024 11:07:48.328,-0.0252, 0.0527,-0.9799,-0.0107,-0.1007, 0.0082,-0.0293, 0.0080,-0.0062,-0.0147,-0.1540,-2.0043,-0.4180,-0.9084, 0.0146, 0.8968,-0.4151,-0.1534, 0.1454,-0.0511, 0.9881,-0.0476, 0.0609,-0.8398, 0.5374,41.388835,2.158191, 0.2668, 356.6, 32.257751, 8.0, 3.0, 45.4,Automotive,High, 102.5680, 7.9534, 166.2558, 81.0425,-614.5787,-23.1779, 12.5872,-0.6725
04-Feb-2024 11:07:48.332,-0.0252, 0.0527,-0.9799,-0.0107,-0.1007, 0.0082,-0.0293, 0.0080,-0.0062,-0.0147,-0.1540,-2.0043,-0.4180,-0.9084, 0.0146, 0.8968,-0.4151,-0.1534, 0.1454,-0.0511, 0.9881,-0.0476, 0.0609,-0.8398, 0.5374,41.388835,2.158191, 0.2668, 356.6, 32.257751, 8.0, 3.0, 45.4,Automotive,High, 102.5680, 7.9534, 166.2558, 81.0425,-614.5787,-23.1779, 12.5872,-0.6725
04-Feb-2024 11:07:48.336,-0.0223, 0.0597,-0.9476,-0.0078,-0.0934, 0.0405,-0.0293, 0.0080,-0.0062,-0.0147,-0.1537,-2.0043,-0.4179,-0.9084, 0.0145, 0.8968,-0.4151,-0.1531, 0.1451,-0.0510, 0.9881,-0.0475, 0.0608,-0.8398, 0.5374,41.388835,2.158191, 0.2668, 356.6, 32.257751, 8.0, 3.0, 45.4,Automotive,High, 102.5680, 7.9534, 166.2558, 81.0425,-614.5787,-23.1779, 12.5872,-0.6725
04-Feb-2024 11:07:48.341,-0.0223, 0.0597,-0.9476,-0.0078,-0.0933, 0.0405,-0.0069, 0.0177,-0.0076,-0.0146,-0.1536,-2.0043,-0.4179,-0.9084, 0.0145, 0.8968,-0.4151,-0.1530, 0.1450,-0.0510, 0.9881,-0.0475, 0.0607,-0.8398, 0.5374,41.388835,2.158191, 0.2668, 356.6, 32.257751, 8.0, 3.0, 45.4,Automotive,High, 102.5680, 7.9534, 166.2558, 81.0425,-614.5787,-23.0934, 12.5694,-0.8644
04-Feb-2024 11:07:48.346,-0.0089, 0.0729,-0.9656, 0.0056,-0.0798, 0.0226,-0.0069, 0.0177,-0.0076,-0.0146,-0.1533,-2.0042,-0.4179,-0.9084, 0.0144, 0.8969,-0.4151,-0.1527, 0.1447,-0.0509, 0.9882,-0.0474, 0.0606,-0.8398, 0.5374,41.388835,2.158191, 0.2668, 356.6, 32.257751, 8.0, 3.0, 45.4,Automotive,High, 102.5680, 7.9534, 166.2558, 81.0425,-614.5787,-23.0934, 12.5694,-0.8644
04-Feb-2024 11:07:48.351,-0.0089, 0.0729,-0.9656, 0.0056,-0.0798, 0.0226,-0.0399,-0.0036,-0.0064,-0.0146,-0.1533,-2.0042,-0.4179,-0.9084, 0.0144, 0.8969,-0.4151,-0.1527, 0.1447,-0.0509, 0.9882,-0.0474, 0.0606,-0.8398, 0.5374,41.388835,2.158191, 0.2668, 356.6, 32.257751, 8.0, 3.0, 45.4,Automotive,High, 102.5680, 7.9534, 166.2558, 81.0425,-614.5787,-23.0934, 12.5694,-0.8644
04-Feb-2024 11:07:48.356,-0.0097, 0.0750,-0.9995, 0.0048,-0.0777,-0.0113,-0.0399,-0.0036,-0.0064,-0.0146,-0.1532,-2.0042,-0.4179,-0.9084, 0.0145, 0.8969,-0.4151,-0.1526, 0.1446,-0.0508, 0.9882,-0.0474, 0.0606,-0.8398, 0.5374,41.388835,2.158191, 0.2668, 356.6, 32.257751, 8.0, 3.0, 45.4,Automotive,High, 102.5680, 7.9534, 166.2558, 81.0425,-614.5787,-23.0934, 12.5694,-0.8644
04-Feb-2024 11:07:48.360,-0.0097, 0.0750,-0.9995, 0.0048,-0.0778,-0.0113,-0.0652,-0.0056,-0.0071,-0.0147,-0.1534,-2.0042,-0.4179,-0.9084, 0.0145, 0.8969,-0.4150,-0.1528, 0.1448,-0.0508, 0.9882,-0.0474, 0.0606,-0.8398, 0.5374,41.388835,2.158191, 0.2668, 356.6, 32.257751, 8.0, 3.0, 45.4,Automotive,High, 102.5680, 7.9534, 166.2558, 81.0425,-614.5787,-23.0558, 12.5814,-0.7605
